[
  {
    "name": "清明小学校",
    "address": "長野県上田市大手2-4-41",
    "lat": 36.403537,
    "lon": 138.24919
  },
  {
    "name": "東小学校",
    "address": "長野県上田市材木町1-10-13",
    "lat": 36.39925,
    "lon": 138.262117
  },
  {
    "name": "西小学校",
    "address": "長野県上田市常磐城5-1-53",
    "lat": 36.409488,
    "lon": 138.243592
  },
  {
    "name": "北小学校",
    "address": "長野県上田市中央北3-1-52",
    "lat": 36.412535,
    "lon": 138.254422
  },
  {
    "name": "城下小学校",
    "address": "長野県上田市諏訪形928-2",
    "lat": 36.389753,
    "lon": 138.241418
  },
  {
    "name": "塩尻小学校",
    "address": "長野県上田市上塩尻219",
    "lat": 36.416892,
    "lon": 138.217803
  },
  {
    "name": "川辺小学校",
    "address": "長野県上田市上田原367",
    "lat": 36.394929,
    "lon": 138.213368
  },
  {
    "name": "神川小学校",
    "address": "長野県上田市国分1386",
    "lat": 36.375751,
    "lon": 138.274227
  },
  {
    "name": "神科小学校",
    "address": "長野県上田市住吉386-1",
    "lat": 36.408883,
    "lon": 138.285653
  },
  {
    "name": "神科小学校",
    "address": "長野県上田市住吉386-1",
    "lat": 36.408883,
    "lon": 138.285653
  },
  {
    "name": "豊殿小学校",
    "address": "長野県上田市芳田968-1",
    "lat": 36.403106,
    "lon": 138.308135
  },
  {
    "name": "東塩田小学校",
    "address": "長野県上田市古安曽1113",
    "lat": 36.347788,
    "lon": 138.221478
  },
  {
    "name": "中塩田小学校",
    "address": "長野県上田市中野93",
    "lat": 36.364025,
    "lon": 138.198806
  },
  {
    "name": "塩田西小学校",
    "address": "長野県上田市山田476-1",
    "lat": 36.351748,
    "lon": 138.176504
  },
  {
    "name": "浦里小学校",
    "address": "長野県上田市浦野237",
    "lat": 36.377482,
    "lon": 138.161027
  },
  {
    "name": "川西小学校",
    "address": "長野県上田市仁古田508",
    "lat": 36.383895,
    "lon": 138.181413
  },
  {
    "name": "南小学校",
    "address": "長野県上田市中之条485",
    "lat": 36.396201,
    "lon": 138.222543
  },
  {
    "name": "丸子中央小学校",
    "address": "長野県上田市上丸子824",
    "lat": 36.322954,
    "lon": 138.27719
  },
  {
    "name": "西内小学校",
    "address": "長野県上田市平井1704",
    "lat": 36.303276,
    "lon": 138.161331
  },
  {
    "name": "丸子北小学校",
    "address": "長野県上田市生田3556",
    "lat": 36.349596,
    "lon": 138.277293
  },
  {
    "name": "塩川小学校",
    "address": "長野県上田市塩川1400",
    "lat": 36.355263,
    "lon": 138.305294
  },
  {
    "name": "菅平小中学校",
    "address": "長野県上田市菅平高原1223-1419",
    "lat": 36.533265,
    "lon": 138.324291
  },
  {
    "name": "長小学校",
    "address": "長野県上田市真田町長4200-3",
    "lat": 36.44742,
    "lon": 138.323782
  },
  {
    "name": "傍陽小学校",
    "address": "長野県上田市真田町傍陽6035-1",
    "lat": 36.457379,
    "lon": 138.291835
  },
  {
    "name": "本原小学校",
    "address": "長野県上田市真田町本原2175-1",
    "lat": 36.428477,
    "lon": 138.307906
  },
  {
    "name": "武石小学校",
    "address": "長野県上田市上武石20",
    "lat": 36.281976,
    "lon": 138.231027
  },
  {
    "name": "第一中学校",
    "address": "長野県上田市国分200",
    "lat": 36.386464,
    "lon": 138.272438
  },
  {
    "name": "第二中学校",
    "address": "長野県上田市大手1-1-45",
    "lat": 36.402426,
    "lon": 138.247481
  },
  {
    "name": "第三中学校",
    "address": "長野県上田市中央北3-3-62",
    "lat": 36.415362,
    "lon": 138.25273
  },
  {
    "name": "第四中学校",
    "address": "長野県上田市諏訪形1200",
    "lat": 36.391697,
    "lon": 138.238602
  },
  {
    "name": "第五中学校",
    "address": "長野県上田市上野441",
    "lat": 36.407785,
    "lon": 138.291725
  },
  {
    "name": "塩田中学校",
    "address": "長野県上田市中野377",
    "lat": 36.36146,
    "lon": 138.197318
  },
  {
    "name": "塩田中学校",
    "address": "長野県上田市中野377",
    "lat": 36.36146,
    "lon": 138.197318
  },
  {
    "name": "第六中学校",
    "address": "長野県上田市小泉21-1",
    "lat": 36.389627,
    "lon": 138.19712
  },
  {
    "name": "丸子中学校",
    "address": "長野県上田市上丸子1878",
    "lat": 36.326057,
    "lon": 138.26949
  },
  {
    "name": "丸子北中学校",
    "address": "長野県上田市生田3298",
    "lat": 36.352749,
    "lon": 138.278729
  },
  {
    "name": "真田中学校",
    "address": "長野県上田市真田町長2175-1",
    "lat": 36.470107,
    "lon": 138.344801
  },
  {
    "name": "上田城跡公園体育館",
    "address": "長野県上田市常磐城1-1-30",
    "lat": 36.404662,
    "lon": 138.240901
  },
  {
    "name": "上田城跡公園体育館",
    "address": "長野県上田市常磐城1-1-30",
    "lat": 36.404662,
    "lon": 138.240901
  },
  {
    "name": "上田城跡公園体育館",
    "address": "長野県上田市常磐城1-1-30",
    "lat": 36.404662,
    "lon": 138.240901
  },
  {
    "name": "自然運動公園",
    "address": "長野県上田市下之郷乙935",
    "lat": 36.367743,
    "lon": 138.228784
  },
  {
    "name": "自然運動公園",
    "address": "長野県上田市下之郷乙935",
    "lat": 36.367743,
    "lon": 138.228784
  },
  {
    "name": "自然運動公園",
    "address": "長野県上田市下之郷乙935",
    "lat": 36.367743,
    "lon": 138.228784
  },
  {
    "name": "上田古戦場公園",
    "address": "長野県上田市築地580",
    "lat": 36.398452,
    "lon": 138.208774
  },
  {
    "name": "県営上田野球場",
    "address": "長野県上田市下之条351-1",
    "lat": 36.400979,
    "lon": 138.210073
  },
  {
    "name": "市民の森公園",
    "address": "長野県上田市芳田3780-4",
    "lat": 36.403991,
    "lon": 138.331638
  },
  {
    "name": "市民の森公園",
    "address": "長野県上田市芳田3780-4",
    "lat": 36.403991,
    "lon": 138.331638
  },
  {
    "name": "アクアプラザ上田",
    "address": "長野県上田市上塩尻623",
    "lat": 36.41046,
    "lon": 138.221647
  },
  {
    "name": "塩田の郷マレットゴルフ場",
    "address": "長野県上田市前山2400-1",
    "lat": 36.335381,
    "lon": 138.180325
  },
  {
    "name": "共同福祉施設（サンワーク上田）",
    "address": "長野県上田市富士山2416-39",
    "lat": 36.347215,
    "lon": 138.245293
  },
  {
    "name": "上野が丘社会体育館",
    "address": "長野県上田市上野303-1",
    "lat": 36.405762,
    "lon": 138.292966
  },
  {
    "name": "室賀健康保健センター",
    "address": "長野県上田市上室賀1438-1",
    "lat": 36.411754,
    "lon": 138.134957
  },
  {
    "name": "川西社会体育館",
    "address": "長野県上田市小泉976-1",
    "lat": 36.383589,
    "lon": 138.182678
  },
  {
    "name": "丸子総合体育館",
    "address": "長野県上田市御嶽堂1-1",
    "lat": 36.326441,
    "lon": 138.266148
  },
  {
    "name": "丸子総合体育館",
    "address": "長野県上田市御嶽堂1-1",
    "lat": 36.326441,
    "lon": 138.266148
  },
  {
    "name": "丸子北部体育館",
    "address": "長野県上田市生田3559-1",
    "lat": 36.350656,
    "lon": 138.278379
  },
  {
    "name": "天下山マレットゴルフ場",
    "address": "長野県上田市塩川4166-1",
    "lat": 36.344554,
    "lon": 138.314045
  },
  {
    "name": "依田窪プール",
    "address": "長野県上田市腰越418-3",
    "lat": 36.303902,
    "lon": 138.249886
  },
  {
    "name": "真田体育館",
    "address": "長野県上田市真田町長7193-1",
    "lat": 36.441551,
    "lon": 138.30419
  },
  {
    "name": "菅平高原スポーツランド",
    "address": "長野県上田市菅平高原1278-244",
    "lat": 36.522636,
    "lon": 138.346025
  },
  {
    "name": "上田市菅平高原アリーナ",
    "address": "長野県上田市菅平高原1223-87",
    "lat": 36.527814,
    "lon": 138.33227
  },
  {
    "name": "武石体育館",
    "address": "長野県上田市上武石2",
    "lat": 36.281009,
    "lon": 138.231082
  },
  {
    "name": "武石森林公園マレットゴルフ場",
    "address": "長野県上田市上武石1899",
    "lat": 36.287759,
    "lon": 138.228677
  },
  {
    "name": "本庁舎",
    "address": "長野県上田市大手1-11-16",
    "lat": 36.401905,
    "lon": 138.248954
  },
  {
    "name": "南庁舎",
    "address": "長野県上田市大手1-11-16",
    "lat": 36.401905,
    "lon": 138.248954
  },
  {
    "name": "北庁舎",
    "address": "長野県上田市大手2-4-10",
    "lat": 36.402687,
    "lon": 138.248373
  },
  {
    "name": "東庁舎",
    "address": "長野県上田市大手2-3-3",
    "lat": 36.402296,
    "lon": 138.250498
  },
  {
    "name": "上田駅前ビルパレオ",
    "address": "長野県上田市天神1-8-1",
    "lat": 36.397507,
    "lon": 138.250612
  },
  {
    "name": "上田駅前ビルパレオ",
    "address": "長野県上田市天神1-8-1",
    "lat": 36.397507,
    "lon": 138.250612
  },
  {
    "name": "上田駅前ビルパレオ",
    "address": "長野県上田市天神1-8-1",
    "lat": 36.397507,
    "lon": 138.250612
  },
  {
    "name": "第二庁舎",
    "address": "長野県上田市天神2-4-55",
    "lat": 36.402527,
    "lon": 138.242357
  },
  {
    "name": "観光会館",
    "address": "長野県上田市大手2-8-4",
    "lat": 36.402949,
    "lon": 138.247339
  },
  {
    "name": "ひとまちげんき・健康プラザうえだ",
    "address": "長野県上田市中央6-5-39",
    "lat": 36.400807,
    "lon": 138.258917
  },
  {
    "name": "ひとまちげんき・健康プラザうえだ",
    "address": "長野県上田市中央6-5-39",
    "lat": 36.400807,
    "lon": 138.258917
  },
  {
    "name": "ひとまちげんき・健康プラザうえだ",
    "address": "長野県上田市中央6-5-39",
    "lat": 36.400807,
    "lon": 138.258917
  },
  {
    "name": "ひとまちげんき・健康プラザうえだ",
    "address": "長野県上田市中央6-5-39",
    "lat": 36.400807,
    "lon": 138.258917
  },
  {
    "name": "ひとまちげんき・健康プラザうえだ",
    "address": "長野県上田市中央6-5-39",
    "lat": 36.400807,
    "lon": 138.258917
  },
  {
    "name": "ひとまちげんき・健康プラザうえだ",
    "address": "長野県上田市中央6-5-39",
    "lat": 36.400807,
    "lon": 138.258917
  },
  {
    "name": "市民プラザ・ゆう",
    "address": "長野県上田市材木町1-2-2",
    "lat": 36.399803,
    "lon": 138.259975
  },
  {
    "name": "豊殿地域自治センター",
    "address": "長野県上田市芳田1261-2",
    "lat": 36.392737,
    "lon": 138.300184
  },
  {
    "name": "丸子地域自治センター",
    "address": "長野県上田市上丸子1612",
    "lat": 36.323566,
    "lon": 138.270351
  },
  {
    "name": "丸子ふれあいステーション",
    "address": "長野県上田市上丸子1600-1",
    "lat": 36.323734,
    "lon": 138.268997
  },
  {
    "name": "丸子ふれあいステーション",
    "address": "長野県上田市上丸子1600-1",
    "lat": 36.323734,
    "lon": 138.268997
  },
  {
    "name": "真田地域自治センター",
    "address": "長野県上田市真田町長7178-1",
    "lat": 36.440608,
    "lon": 138.304253
  },
  {
    "name": "真田保健センター",
    "address": "長野県上田市真田町長7199-1",
    "lat": 36.441745,
    "lon": 138.304912
  },
  {
    "name": "真田保健センター",
    "address": "長野県上田市真田町長7199-1",
    "lat": 36.441745,
    "lon": 138.304912
  },
  {
    "name": "武石地域自治センター",
    "address": "長野県上田市上武石77",
    "lat": 36.283453,
    "lon": 138.230398
  },
  {
    "name": "武石地域教育事務所",
    "address": "長野県上田市下武石740",
    "lat": 36.284148,
    "lon": 138.23035
  },
  {
    "name": "武石健康センター",
    "address": "長野県上田市下武石772",
    "lat": 36.285385,
    "lon": 138.22938
  },
  {
    "name": "上田市立上田図書館",
    "address": "長野県上田市材木町1-2-47",
    "lat": 36.39995,
    "lon": 138.260922
  },
  {
    "name": "上田情報ライブラリー",
    "address": "長野県上田市天神1-8-1",
    "lat": 36.397507,
    "lon": 138.250612
  },
  {
    "name": "丸子図書館",
    "address": "長野県上田市中丸子1771-11",
    "lat": 36.338766,
    "lon": 138.269394
  },
  {
    "name": "真田図書館",
    "address": "長野県上田市真田町長7178-1",
    "lat": 36.440608,
    "lon": 138.304253
  },
  {
    "name": "旧上田市民会館",
    "address": "長野県上田市二の丸1-2",
    "lat": 36.40272,
    "lon": 138.24587
  },
  {
    "name": "交流文化芸術センター",
    "address": "長野県上田市天神3-15-15",
    "lat": 36.397821,
    "lon": 138.243826
  },
  {
    "name": "上田市立美術館",
    "address": "長野県上田市天神3-15-15",
    "lat": 36.397821,
    "lon": 138.243826
  },
  {
    "name": "信州国際音楽村",
    "address": "長野県上田市生田2937-1",
    "lat": 36.361807,
    "lon": 138.278648
  },
  {
    "name": "丸子文化会館",
    "address": "長野県上田市上丸子1488",
    "lat": 36.318374,
    "lon": 138.269536
  },
  {
    "name": "上田城跡公園",
    "address": "長野県上田市天神2-3-13",
    "lat": 36.402141,
    "lon": 138.245154
  },
  {
    "name": "あいそめの湯",
    "address": "長野県上田市別所温泉58",
    "lat": 36.353248,
    "lon": 138.163031
  },
  {
    "name": "室賀温泉ささらの湯",
    "address": "長野県上田市上室賀1232-1",
    "lat": 36.40996,
    "lon": 138.147953
  },
  {
    "name": "健康センター「クアハウスかけゆ」",
    "address": "長野県上田市鹿教湯温泉1293",
    "lat": 36.30326,
    "lon": 138.136678
  },
  {
    "name": "真田温泉健康ランドふれあいさなだ館",
    "address": "長野県上田市真田町長7369-1",
    "lat": 36.443168,
    "lon": 138.307772
  },
  {
    "name": "武石温泉うつくしの湯",
    "address": "長野県上田市上武石1454－3",
    "lat": 36.286294,
    "lon": 138.227231
  },
  {
    "name": "城下地区防災センター",
    "address": "長野県上田市御所288-4",
    "lat": 36.387201,
    "lon": 138.236042
  },
  {
    "name": "東部地区防災センター",
    "address": "長野県上田市常田2-30-20",
    "lat": 36.396439,
    "lon": 138.256779
  },
  {
    "name": "南部地区防災センター",
    "address": "長野県上田市天神2-1-24",
    "lat": 36.399501,
    "lon": 138.246678
  },
  {
    "name": "川辺・泉田地区防災センター",
    "address": "長野県上田市福田30-4",
    "lat": 36.388881,
    "lon": 138.205614
  },
  {
    "name": "川西地区防災センター",
    "address": "長野県上田市岡1262-1",
    "lat": 36.381776,
    "lon": 138.171644
  },
  {
    "name": "内科・小児科初期救急センター",
    "address": "長野県上田市緑が丘1-27-21",
    "lat": 36.412624,
    "lon": 138.251352
  },
  {
    "name": "産婦人科病院",
    "address": "長野県上田市緑が丘1-27-32",
    "lat": 36.414026,
    "lon": 138.25
  },
  {
    "name": "武石診療所",
    "address": "長野県上田市下武石771-1",
    "lat": 36.285367,
    "lon": 138.22989
  },
  {
    "name": "ふれあい福祉センター",
    "address": "長野県上田市中央3-5-1",
    "lat": 36.40416,
    "lon": 138.253213
  },
  {
    "name": "つむぎの家",
    "address": "長野県上田市中之条802-2",
    "lat": 36.398807,
    "lon": 138.225814
  },
  {
    "name": "高齢者福祉センター",
    "address": "長野県上田市常磐城3-3-18",
    "lat": 36.402819,
    "lon": 138.234457
  },
  {
    "name": "中央デイサービスセンター",
    "address": "長野県上田市常磐城3-3-18",
    "lat": 36.402819,
    "lon": 138.234457
  },
  {
    "name": "室賀デイサービスセンター",
    "address": "長野県上田市上室賀19",
    "lat": 36.402995,
    "lon": 138.160222
  },
  {
    "name": "神川デイサービスセンター",
    "address": "長野県上田市国分533-20",
    "lat": 36.378568,
    "lon": 138.277651
  },
  {
    "name": "塩田デイサービスセンター",
    "address": "長野県上田市中野339-2",
    "lat": 36.363811,
    "lon": 138.196451
  },
  {
    "name": "母子寮",
    "address": "長野県上田市常田3-2-8",
    "lat": 36.397479,
    "lon": 138.259837
  },
  {
    "name": "中央子育て支援センター",
    "address": "長野県上田市中央6-5-39",
    "lat": 36.400807,
    "lon": 138.258917
  },
  {
    "name": "病児保育センター",
    "address": "長野県上田市中央1-4-10",
    "lat": 36.397857,
    "lon": 138.25087
  },
  {
    "name": "丸子子育てサロン",
    "address": "長野県上田市中丸子1623-34",
    "lat": 36.336733,
    "lon": 138.270603
  },
  {
    "name": "上田地域高等職業訓練センター",
    "address": "長野県上田市常磐城1-3-20",
    "lat": 36.406765,
    "lon": 138.241487
  },
  {
    "name": "勤労者福祉センター",
    "address": "長野県上田市中央4-9-1",
    "lat": 36.406183,
    "lon": 138.253635
  },
  {
    "name": "真田老人福祉センター",
    "address": "長野県上田市真田町長7229",
    "lat": 36.441164,
    "lon": 138.304667
  },
  {
    "name": "武石デイサービスセンターやすらぎ",
    "address": "長野県上田市下武石771-1",
    "lat": 36.285367,
    "lon": 138.22989
  },
  {
    "name": "丸子中央病院病児保育センター",
    "address": "長野県上田市中丸子1771-1",
    "lat": 36.338224,
    "lon": 138.269879
  },
  {
    "name": "真田総合福祉センター",
    "address": "長野県上田市真田町長7190",
    "lat": 36.441321,
    "lon": 138.304028
  },
  {
    "name": "中央公民館（上田文化会館）",
    "address": "長野県上田市材木町1-2-3",
    "lat": 36.399965,
    "lon": 138.260475
  },
  {
    "name": "中央公民館",
    "address": "長野県上田市材木町1-2-3",
    "lat": 36.399965,
    "lon": 138.260475
  },
  {
    "name": "神川地区公民館",
    "address": "長野県上田市蒼久保1212-1",
    "lat": 36.377714,
    "lon": 138.282283
  },
  {
    "name": "西部公民館",
    "address": "長野県上田市常磐城5-4-34",
    "lat": 36.412081,
    "lon": 138.24032
  },
  {
    "name": "塩尻地区公民館",
    "address": "長野県上田市上塩尻253-1",
    "lat": 36.417693,
    "lon": 138.215294
  },
  {
    "name": "城南公民館",
    "address": "長野県上田市中之条460",
    "lat": 36.395856,
    "lon": 138.225581
  },
  {
    "name": "城南公民館",
    "address": "長野県上田市中之条460",
    "lat": 36.395856,
    "lon": 138.225581
  },
  {
    "name": "上野が丘公民館",
    "address": "長野県上田市住吉378-1",
    "lat": 36.40773,
    "lon": 138.283406
  },
  {
    "name": "塩田公民館",
    "address": "長野県上田市中野20",
    "lat": 36.358912,
    "lon": 138.198614
  },
  {
    "name": "川西公民館",
    "address": "長野県上田市小泉863-1",
    "lat": 36.384046,
    "lon": 138.185239
  },
  {
    "name": "丸子公民館",
    "address": "長野県上田市上丸子1592-2",
    "lat": 36.322616,
    "lon": 138.268949
  },
  {
    "name": "真田中央公民館",
    "address": "長野県上田市真田町長7199-1",
    "lat": 36.441745,
    "lon": 138.304912
  },
  {
    "name": "緑が丘児童館",
    "address": "長野県上田市緑が丘2-5-21",
    "lat": 36.41466,
    "lon": 138.246912
  },
  {
    "name": "大星児童センター",
    "address": "長野県上田市中央北3-1-42",
    "lat": 36.412535,
    "lon": 138.254422
  },
  {
    "name": "朝日が丘児童館",
    "address": "長野県上田市諏訪形1590",
    "lat": 36.384156,
    "lon": 138.239267
  },
  {
    "name": "秋和児童センター",
    "address": "長野県上田市秋和914",
    "lat": 36.414085,
    "lon": 138.232049
  },
  {
    "name": "川辺町児童センター",
    "address": "長野県上田市上田原852-1",
    "lat": 36.393258,
    "lon": 138.225773
  },
  {
    "name": "神科児童センター",
    "address": "長野県上田市住吉551-1",
    "lat": 36.409503,
    "lon": 138.279112
  },
  {
    "name": "東塩田児童センター",
    "address": "長野県上田市古安曽2056-1",
    "lat": 36.349607,
    "lon": 138.219731
  },
  {
    "name": "下丸子児童館",
    "address": "長野県上田市下丸子351",
    "lat": 36.340091,
    "lon": 138.276249
  },
  {
    "name": "真田児童館",
    "address": "長野県上田市真田町本原1771",
    "lat": 36.428413,
    "lon": 138.306042
  },
  {
    "name": "武石児童館",
    "address": "長野県上田市下武石688",
    "lat": 36.282525,
    "lon": 138.231802
  },
  {
    "name": "学童保育所太郎の家",
    "address": "長野県上田市中央北2-9-15",
    "lat": 36.411205,
    "lon": 138.253419
  },
  {
    "name": "学童保育所たんぽぽ",
    "address": "長野県上田市諏訪形1276-6",
    "lat": 36.386787,
    "lon": 138.238777
  },
  {
    "name": "学童保育所バッタの家",
    "address": "長野県上田市築地750-6",
    "lat": 36.39737,
    "lon": 138.212422
  },
  {
    "name": "学童保育所どんぐり",
    "address": "長野県上田市住吉386-1",
    "lat": 36.408883,
    "lon": 138.285653
  },
  {
    "name": "学童保育所どんぐり分室ころころ",
    "address": "長野県上田市住吉403-1",
    "lat": 36.410216,
    "lon": 138.282461
  },
  {
    "name": "学童保育所トットの家",
    "address": "長野県上田市中之条519-4",
    "lat": 36.39651,
    "lon": 138.225599
  },
  {
    "name": "学童保育所ふれんど",
    "address": "長野県上田市諏訪形705-2",
    "lat": 36.390491,
    "lon": 138.245747
  },
  {
    "name": "清明児童クラブ",
    "address": "長野県上田市大手2-4-41",
    "lat": 36.403537,
    "lon": 138.24919
  },
  {
    "name": "東部児童クラブ",
    "address": "長野県上田市材木町1-10-13",
    "lat": 36.39925,
    "lon": 138.262117
  },
  {
    "name": "東部南児童クラブ",
    "address": "長野県上田市常田2-26-15",
    "lat": 36.395324,
    "lon": 138.259348
  },
  {
    "name": "西部児童クラブ",
    "address": "長野県上田市常磐城5-1-53",
    "lat": 36.409488,
    "lon": 138.243592
  },
  {
    "name": "塩尻児童クラブ",
    "address": "長野県上田市上塩尻219",
    "lat": 36.416892,
    "lon": 138.217803
  },
  {
    "name": "川辺北児童クラブ",
    "address": "長野県上田市上田原367",
    "lat": 36.394929,
    "lon": 138.213368
  },
  {
    "name": "川辺南児童クラブ",
    "address": "長野県上田市上田原367",
    "lat": 36.394929,
    "lon": 138.213368
  },
  {
    "name": "神川児童クラブ",
    "address": "長野県上田市国分1386",
    "lat": 36.375751,
    "lon": 138.274227
  },
  {
    "name": "神川児童クラブ分室",
    "address": "長野県上田市国分1386",
    "lat": 36.375751,
    "lon": 138.274227
  },
  {
    "name": "豊殿児童クラブ",
    "address": "長野県上田市芳田968-1",
    "lat": 36.403106,
    "lon": 138.308135
  },
  {
    "name": "豊殿児童クラブ分室",
    "address": "長野県上田市芳田968-1",
    "lat": 36.403106,
    "lon": 138.308135
  },
  {
    "name": "東塩田児童クラブ",
    "address": "長野県上田市古安曽1929-3",
    "lat": 36.349148,
    "lon": 138.221869
  },
  {
    "name": "中塩田児童クラブ",
    "address": "長野県上田市中野93",
    "lat": 36.364025,
    "lon": 138.198806
  },
  {
    "name": "中塩田児童クラブ分室",
    "address": "長野県上田市中野658-1",
    "lat": 36.363559,
    "lon": 138.192261
  },
  {
    "name": "塩田西児童クラブ",
    "address": "長野県上田市山田476-1",
    "lat": 36.351748,
    "lon": 138.176504
  },
  {
    "name": "浦里児童クラブ",
    "address": "長野県上田市浦野57-1",
    "lat": 36.375251,
    "lon": 138.161154
  },
  {
    "name": "川西児童クラブ",
    "address": "長野県上田市小泉863-2",
    "lat": 36.384215,
    "lon": 138.185614
  },
  {
    "name": "丸子中央児童クラブ",
    "address": "長野県上田市上丸子824",
    "lat": 36.322954,
    "lon": 138.27719
  },
  {
    "name": "西内児童クラブ",
    "address": "長野県上田市平井1638-1",
    "lat": 36.302697,
    "lon": 138.163828
  },
  {
    "name": "丸子北児童クラブ",
    "address": "長野県上田市生田3531",
    "lat": 36.350313,
    "lon": 138.278271
  },
  {
    "name": "塩川児童クラブ",
    "address": "長野県上田市塩川1458",
    "lat": 36.354641,
    "lon": 138.305005
  },
  {
    "name": "菅平児童クラブ",
    "address": "長野県上田市菅平高原1223-1419",
    "lat": 36.533265,
    "lon": 138.324291
  },
  {
    "name": "長児童クラブ",
    "address": "長野県上田市真田町長4238-1",
    "lat": 36.447875,
    "lon": 138.32386
  },
  {
    "name": "上田市立博物館",
    "address": "長野県上田市二の丸3-3",
    "lat": 36.40372,
    "lon": 138.24649
  },
  {
    "name": "マルチメディア情報センター",
    "address": "長野県上田市下之郷812-1",
    "lat": 36.36362,
    "lon": 138.237021
  },
  {
    "name": "池波正太郎真田太平記館",
    "address": "長野県上田市中央3-7-3",
    "lat": 36.403171,
    "lon": 138.253544
  },
  {
    "name": "道と川の駅おとぎの里",
    "address": "長野県上田市小泉2575-2",
    "lat": 36.40705,
    "lon": 138.205379
  },
  {
    "name": "うえだ食彩館ゆとりの里",
    "address": "長野県上田市住吉380-24",
    "lat": 36.408015,
    "lon": 138.282859
  },
  {
    "name": "塩田の里交流館（とっこ館）",
    "address": "長野県上田市手塚792",
    "lat": 36.346403,
    "lon": 138.179595
  },
  {
    "name": "塩田の館",
    "address": "長野県上田市前山554-12",
    "lat": 36.34032,
    "lon": 138.191363
  },
  {
    "name": "別所温泉森林公園",
    "address": "長野県上田市別所温泉1179-11",
    "lat": 36.339829,
    "lon": 138.14151
  },
  {
    "name": "上田市営お城口駐車場・駐輪場",
    "address": "長野県上田市天神1-1-2",
    "lat": 36.396462,
    "lon": 138.249866
  },
  {
    "name": "上田市営温泉口駐車場・駐輪場",
    "address": "長野県上田市天神4-16-17",
    "lat": 36.396551,
    "lon": 138.248474
  },
  {
    "name": "旧宣教師館",
    "address": "長野県上田市下之郷812-8",
    "lat": 36.363499,
    "lon": 138.235467
  },
  {
    "name": "鹿教湯温泉交流センター",
    "address": "長野県上田市鹿教湯温泉1434-2",
    "lat": 36.301286,
    "lon": 138.134875
  },
  {
    "name": "丸子物産館　花風里",
    "address": "長野県上田市生田2151-1",
    "lat": 36.361708,
    "lon": 138.277092
  },
  {
    "name": "真田氏歴史館",
    "address": "長野県上田市真田町本原2984-1",
    "lat": 36.431425,
    "lon": 138.318588
  },
  {
    "name": "ゆきむら夢工房",
    "address": "長野県上田市真田町長6090-1",
    "lat": 36.440641,
    "lon": 138.307602
  },
  {
    "name": "菅平高原国際リゾートセンター",
    "address": "長野県上田市菅平高原1223-1751",
    "lat": 36.528458,
    "lon": 138.332733
  },
  {
    "name": "武石観光センター",
    "address": "長野県上田市武石上本入2384－65",
    "lat": 36.258385,
    "lon": 138.135558
  },
  {
    "name": "武石番所ヶ原スキー場",
    "address": "長野県上田市武石上本入2386-1",
    "lat": 36.2548,
    "lon": 138.107361
  },
  {
    "name": "鹿教湯温泉センター　文殊の湯",
    "address": "長野県上田市鹿教湯温泉1369-1",
    "lat": 36.300993,
    "lon": 138.137003
  },
  {
    "name": "大塩温泉共同浴場",
    "address": "長野県上田市西内150",
    "lat": 36.30327,
    "lon": 138.153337
  },
  {
    "name": "町･高梨共同浴場",
    "address": "長野県上田市西内885-1",
    "lat": 36.304346,
    "lon": 138.139301
  },
  {
    "name": "霊泉寺温泉共同浴場",
    "address": "長野県上田市平井2515-2",
    "lat": 36.295226,
    "lon": 138.173116
  },
  {
    "name": "国民宿舎「鹿月荘」",
    "address": "長野県上田市鹿教湯温泉1295-2",
    "lat": 36.303245,
    "lon": 138.136994
  },
  {
    "name": "岳の湯温泉雲渓荘",
    "address": "長野県上田市武石小沢根576-3",
    "lat": 36.239229,
    "lon": 138.194458
  },
  {
    "name": "上田市稲倉の里農村交流館",
    "address": "長野県上田市殿城2889-1",
    "lat": 36.405719,
    "lon": 138.317451
  },
  {
    "name": "別所温泉センター",
    "address": "長野県上田市別所温泉1723-1",
    "lat": 36.350849,
    "lon": 138.156103
  },
  {
    "name": "東部保育園",
    "address": "長野県上田市常田3-4-34",
    "lat": 36.396121,
    "lon": 138.261813
  },
  {
    "name": "南部保育園",
    "address": "長野県上田市常田1-5-1",
    "lat": 36.392254,
    "lon": 138.253137
  },
  {
    "name": "北保育園",
    "address": "長野県上田市常磐城5-7-25",
    "lat": 36.412746,
    "lon": 138.243234
  },
  {
    "name": "塩尻保育園",
    "address": "長野県上田市上塩尻195-1",
    "lat": 36.416968,
    "lon": 138.219652
  },
  {
    "name": "神川保育園",
    "address": "長野県上田市蒼久保1212-1",
    "lat": 36.377714,
    "lon": 138.282283
  },
  {
    "name": "国分保育園",
    "address": "長野県上田市国分745-ｲ",
    "lat": 36.383455,
    "lon": 138.273537
  },
  {
    "name": "神科第一保育園",
    "address": "長野県上田市住吉707-2",
    "lat": 36.410412,
    "lon": 138.279742
  },
  {
    "name": "神科第二保育園",
    "address": "長野県上田市古里137-6",
    "lat": 36.400324,
    "lon": 138.286858
  },
  {
    "name": "豊殿保育園",
    "address": "長野県上田市芳田982-3",
    "lat": 36.403048,
    "lon": 138.306474
  },
  {
    "name": "城下保育園",
    "address": "長野県上田市諏訪形934",
    "lat": 36.390276,
    "lon": 138.241696
  },
  {
    "name": "川辺保育園",
    "address": "長野県上田市上田原518",
    "lat": 36.390966,
    "lon": 138.216316
  },
  {
    "name": "下之条保育園",
    "address": "長野県上田市下之条801-ｲ",
    "lat": 36.403483,
    "lon": 138.218205
  },
  {
    "name": "泉田保育園",
    "address": "長野県上田市小泉1-8",
    "lat": 36.390646,
    "lon": 138.199251
  },
  {
    "name": "塩田中央保育園",
    "address": "長野県上田市中野419-1",
    "lat": 36.360278,
    "lon": 138.196331
  },
  {
    "name": "東塩田保育園",
    "address": "長野県上田市下之郷806-3",
    "lat": 36.355504,
    "lon": 138.218039
  },
  {
    "name": "西塩田保育園",
    "address": "長野県上田市手塚1086-3",
    "lat": 36.346343,
    "lon": 138.181121
  },
  {
    "name": "塩田北保育園",
    "address": "長野県上田市小島122",
    "lat": 36.371781,
    "lon": 138.203837
  },
  {
    "name": "浦里保育園",
    "address": "長野県上田市仁古田171",
    "lat": 36.374942,
    "lon": 138.168065
  },
  {
    "name": "室賀保育園",
    "address": "長野県上田市下室賀2336-1",
    "lat": 36.399691,
    "lon": 138.164655
  },
  {
    "name": "中丸子保育園",
    "address": "長野県上田市中丸子1852-5",
    "lat": 36.337848,
    "lon": 138.269219
  },
  {
    "name": "西内保育園",
    "address": "長野県上田市西内8",
    "lat": 36.302514,
    "lon": 138.159569
  },
  {
    "name": "依田保育園",
    "address": "長野県上田市生田4953-2",
    "lat": 36.351211,
    "lon": 138.268462
  },
  {
    "name": "長瀬保育園",
    "address": "長野県上田市長瀬2466",
    "lat": 36.350943,
    "lon": 138.28338
  },
  {
    "name": "塩川保育園",
    "address": "長野県上田市塩川1458",
    "lat": 36.354641,
    "lon": 138.305005
  },
  {
    "name": "さなだ保育園",
    "address": "長野県上田市真田町長6301",
    "lat": 36.439654,
    "lon": 138.300991
  },
  {
    "name": "そえひ保育園",
    "address": "長野県上田市真田町傍陽6293",
    "lat": 36.452525,
    "lon": 138.292365
  },
  {
    "name": "すがだいら保育園",
    "address": "長野県上田市菅平高原1223-392",
    "lat": 36.526224,
    "lon": 138.322795
  },
  {
    "name": "武石保育園",
    "address": "長野県上田市下武石752",
    "lat": 36.284986,
    "lon": 138.230185
  },
  {
    "name": "ちぐさ幼稚園",
    "address": "長野県上田市塩川2620",
    "lat": 36.362956,
    "lon": 138.300887
  },
  {
    "name": "まるこ保育園",
    "address": "長野県上田市上丸子895",
    "lat": 36.324365,
    "lon": 138.273924
  }
]